City_ID,City,Lat,Lng,Max Temp,Humidity,Cloudiness,Wind Speed,Country,Date
0,pisco,-13.7,-76.2167,21.03,83,20,4.12,PE,1715096755
1,adamstown,-25.066,-130.1015,21.62,78,72,5.3,PN,1715097003
2,acarau,-2.8856,-40.12,30.85,66,84,5.42,BR,1715097004
3,isafjordur,66.0755,-23.124,6.02,61,75,0.0,IS,1715097004
4,yinchuan,38.4681,106.2731,21.39,12,97,1.56,CN,1715097004
5,bethel,41.3712,-73.414,24.54,42,0,3.6,US,1715096809
6,grytviken,-54.2811,-36.5092,-0.94,76,52,3.8,GS,1715097004
7,pacific grove,36.6177,-121.9166,13.99,78,0,3.13,US,1715097004
8,ta`u,-14.2336,-169.5144,28.88,80,100,4.23,AS,1715097004
9,san antonio de pale,-1.4014,5.6325,27.8,80,98,3.88,GQ,1715097004
10,taro,-8.3862,115.28,24.0,100,93,0.26,ID,1715097005
11,bayji,34.9311,43.487,23.79,29,39,4.95,IQ,1715097005
12,sisimiut,66.9395,-53.6735,-2.89,66,90,0.84,GL,1715097005
13,ushuaia,-54.8,-68.3,2.81,81,20,0.51,AR,1715096953
14,waitangi,-43.9535,-176.5597,9.63,56,23,3.72,NZ,1715097005
15,chernyshevskiy,63.0128,112.4714,-2.25,84,75,5.55,RU,1715097005
16,bredasdorp,-34.5322,20.0403,16.96,84,94,5.24,ZA,1715097005
17,yuzhno-kurilsk,44.0306,145.8556,5.76,99,100,2.64,RU,1715097005
18,fort bragg,35.139,-79.006,27.33,66,20,6.17,US,1715097005
19,puerto ayora,-0.7393,-90.3518,26.98,97,51,1.79,EC,1715097006
20,dikwa,12.024,13.9165,40.92,8,100,8.5,NG,1715097006
21,pressbaum,48.176,16.0477,18.05,80,75,3.09,AT,1715097006
22,lakhtar,22.85,71.7833,35.65,25,0,5.79,IN,1715097006
23,eldorado at santa fe,35.5264,-105.9347,15.77,21,0,3.13,US,1715097006
24,khadan khak,30.7477,67.7085,23.41,26,0,2.55,PK,1715097006
25,west island,-12.1568,96.8225,26.99,78,40,4.12,CC,1715097006
26,constantia,44.1833,28.65,23.38,80,93,6.41,RO,1715097007
27,santiago de cao,-7.9589,-79.2392,18.07,94,75,4.63,PE,1715097007
28,beidaihehaibin,39.8222,119.5181,15.22,43,2,3.77,CN,1715097007
29,filadelfia,39.9523,-75.1638,26.33,45,75,1.54,US,1715096921
30,mitsamiouli,-11.3847,43.2844,27.59,75,100,2.39,KM,1715097007
31,lebu,-37.6167,-73.65,10.12,73,72,3.38,CL,1715097007
32,chengde,40.9725,117.9361,14.2,35,18,0.93,CN,1715097007
33,coahuayana de hidalgo,18.7,-103.6583,30.15,31,100,1.43,MX,1715097007
34,afaahiti,-17.75,-149.2833,23.93,76,88,7.57,PF,1715097008
35,brejo,-3.6844,-42.7503,32.95,48,10,3.02,BR,1715097008
36,el bolson,-41.9667,-71.5167,4.13,96,99,2.0,AR,1715097008
37,port-aux-francais,-49.35,70.2167,4.41,76,21,15.29,TF,1715097008
38,polyarnyy,69.1989,33.4478,-1.32,69,99,5.96,RU,1715097008
39,invercargill,-46.4,168.35,6.12,90,98,1.34,NZ,1715096863
40,dudinka,69.4058,86.1778,-5.18,94,96,3.13,RU,1715097008
41,punta arenas,-53.15,-70.9167,3.01,87,100,5.66,CL,1715097008
42,minas de marcona,-15.2119,-75.1103,19.65,59,81,6.99,PE,1715097008
43,glace bay,46.1969,-59.957,16.29,57,40,1.54,CA,1715096930
44,nioki,-2.7167,17.6833,33.84,39,100,1.17,CD,1715097009
45,edinburgh of the seven seas,-37.0676,-12.3116,15.52,80,76,15.66,SH,1715097009
46,uturoa,-16.7333,-151.4333,27.9,76,50,7.95,PF,1715097009
47,suva,-18.1416,178.4415,23.71,94,75,1.03,FJ,1715097009
48,vorgashor,67.5833,63.95,-11.31,94,77,2.93,RU,1715097009
49,raduzhny,62.0961,77.475,3.33,97,100,4.44,RU,1715097009
50,talnakh,69.4865,88.3972,-5.44,96,97,2.49,RU,1715097009
51,al ghayzah,16.2079,52.176,30.85,70,17,6.9,YE,1715097010
52,carutapera,-1.195,-46.02,29.41,76,51,3.11,BR,1715097010
53,blackmans bay,-43.0167,147.3167,11.4,86,100,1.91,AU,1715097010
54,ribeira grande,38.5167,-28.7,20.22,88,40,7.6,PT,1715097010
55,keflavik,64.0049,-22.5624,5.24,87,100,8.75,IS,1715096851
56,udachny,66.4167,112.4,-0.31,98,84,9.15,RU,1715097010
57,albany,42.6001,-73.9662,21.76,46,0,0.45,US,1715096899
58,stanley,54.868,-1.6985,14.77,77,20,3.09,GB,1715097010
59,batac city,18.0554,120.5649,28.88,74,75,2.57,PH,1715097010
60,nalut,30.3333,10.85,37.82,6,90,8.38,LY,1715097011
61,nova sintra,14.8667,-24.7167,24.49,70,1,6.52,CV,1715097011
62,hermanus,-34.4187,19.2345,14.89,90,96,4.5,ZA,1715097011
63,neem ka thana,27.7333,75.8,32.12,15,11,1.53,IN,1715097011
64,berdigestyakh,62.0989,126.6992,2.38,89,96,4.08,RU,1715097011
65,bilibino,68.0546,166.4372,-5.71,98,82,0.34,RU,1715097011
66,tazovsky,67.4667,78.7,-13.81,99,45,2.87,RU,1715097011
67,selfoss,63.9331,-20.9971,6.69,81,100,9.3,IS,1715097011
68,opuwo,-18.0607,13.84,30.25,18,4,3.35,NA,1715097011
69,porto seguro,-16.4497,-39.0647,29.29,74,75,5.66,BR,1715097011
70,bosobolo,4.1833,19.9,30.52,48,90,1.33,CD,1715097011
71,bakanas,44.8081,76.2772,25.08,34,25,0.86,KZ,1715097012
72,papatowai,-46.5619,169.4708,9.5,84,91,5.26,NZ,1715097012
73,khorramshahr,30.4397,48.1664,34.98,18,0,2.06,IR,1715097012
74,holualoa,19.6228,-155.9522,21.91,60,40,5.14,US,1715097012
75,olonkinbyen,70.9221,-8.7187,0.05,87,11,5.48,SJ,1715097012
76,port elizabeth,-33.918,25.5701,20.61,92,75,6.69,ZA,1715097012
77,kismayo,-0.3582,42.5454,27.29,82,79,7.4,SO,1715097012
78,anadyr,64.75,177.4833,-8.72,79,75,9.0,RU,1715097012
79,viana do castelo,41.6932,-8.8329,17.91,68,100,5.25,PT,1715096849
80,undurkhaan,47.3194,110.6556,18.55,21,26,4.25,MN,1715097013
81,ilulissat,69.2167,-51.1,-4.99,58,75,3.6,GL,1715097013
82,celestun,20.8667,-90.4,32.83,49,12,3.0,MX,1715097013
83,haiku-pauwela,20.9219,-156.3051,21.69,85,0,0.45,US,1715097013
84,san patricio,28.017,-97.5169,29.05,77,100,2.92,US,1715097013
85,qaqortoq,60.7167,-46.0333,2.47,47,46,1.23,GL,1715097013
86,rawson,-43.3002,-65.1023,15.37,70,99,9.95,AR,1715096990
87,at taj,24.2049,23.2857,32.24,9,45,3.2,LY,1715097013
88,tofol,5.3248,163.0078,28.07,82,99,6.59,FM,1715097013
89,rio grande,-32.035,-52.0986,23.06,85,99,4.19,BR,1715097013
90,floro,61.5996,5.0328,12.35,93,75,4.63,NO,1715097014
91,puerto natales,-51.7236,-72.4875,1.25,69,0,2.06,CL,1715097014
92,tiksi,71.6872,128.8694,0.01,99,100,5.31,RU,1715097014
93,tolanaro,-25.0319,46.9987,24.04,88,40,4.12,MG,1715097014
94,jamestown,42.097,-79.2353,22.51,48,75,2.24,US,1715097014
95,fort st. john,56.2499,-120.8529,7.94,39,75,9.26,CA,1715097014
96,margaret river,-33.95,115.0667,16.17,60,42,4.87,AU,1715097014
97,college,64.8569,-147.8028,2.87,89,75,2.57,US,1715097015
98,colonia,50.9333,6.95,19.34,78,75,2.57,DE,1715097015
99,urangan,-25.3,152.9,18.44,95,13,2.68,AU,1715097015
100,chonchi,-42.6128,-73.8092,8.4,81,93,1.3,CL,1715097015
101,iqaluit,63.7506,-68.5145,-3.15,68,20,8.23,CA,1715097015
102,sinabang,2.4803,96.3801,26.86,82,97,1.79,ID,1715097015
103,ormara,25.2088,64.6357,27.63,83,0,4.84,PK,1715097015
104,katsuura,35.1333,140.3,20.17,91,100,8.19,JP,1715096923
105,catumbela,-12.4314,13.5472,28.64,69,20,3.19,AO,1715097015
106,es castell,39.8795,4.2854,17.38,63,40,5.14,ES,1715097016
107,konarka,19.9,86.1167,27.22,82,100,3.6,IN,1715097016
108,happy valley-goose bay,53.3168,-60.3315,12.17,50,75,3.09,CA,1715097016
109,puerto deseado,-47.7503,-65.8938,3.08,97,100,4.3,AR,1715097016
110,whitehorse,60.7161,-135.0538,2.28,74,75,5.14,CA,1715097002
111,goba,7.0167,39.9833,12.37,91,66,0.41,ET,1715097016
112,sola,-13.8833,167.55,26.85,68,99,9.61,VU,1715097016
113,kodiak,57.79,-152.4072,3.73,87,100,2.06,US,1715097016
114,tangalle,6.024,80.7911,29.09,84,100,4.32,LK,1715097016
115,port lincoln,-34.7333,135.8667,14.73,84,44,6.0,AU,1715097017
116,puerto madero,14.7208,-92.4215,31.11,70,40,3.09,MX,1715097017
117,port isabel,26.0734,-97.2086,30.6,77,100,7.2,US,1715097017
118,kourou,5.1552,-52.6478,27.03,82,98,4.09,GF,1715096983
119,lospalos,-8.5186,127.0025,21.83,98,91,2.26,TL,1715097017
120,hasaki,35.7333,140.8333,20.22,89,100,6.49,JP,1715097017
121,shangmei,27.7428,111.2956,21.64,91,99,1.16,CN,1715097017
122,burang,30.25,81.1667,1.81,74,13,1.26,CN,1715097018
123,avellaneda,-29.1176,-59.6583,26.68,68,100,5.17,AR,1715097018
124,akureyri,65.6835,-18.0878,8.96,61,75,9.77,IS,1715097018
125,fale old settlement,-9.3852,-171.2468,29.25,77,93,3.96,TK,1715097018
126,bandarban,22.1965,92.2262,25.84,84,75,0.77,BD,1715097018
127,el granada,37.5027,-122.4694,14.89,78,75,4.12,US,1715097018
128,amontada,-3.3617,-39.8317,31.66,61,60,3.11,BR,1715097018
129,kidal,18.4411,1.4078,39.94,7,100,6.98,ML,1715097018
130,yellowknife,62.456,-114.3525,11.34,70,75,3.09,CA,1715096952
131,ostroleka,53.0862,21.5757,13.14,55,16,4.17,PL,1715097018
132,benghazi,32.1167,20.0667,22.02,50,83,5.51,LY,1715097019
133,mazatlan,23.2167,-106.4167,24.95,70,100,0.89,MX,1715096780
134,sabha,27.0377,14.4283,36.24,12,7,6.93,LY,1715097019
135,amursk,50.2261,136.8994,3.54,56,0,2.41,RU,1715096784
136,mossel bay,-34.1831,22.146,19.96,78,13,3.62,ZA,1715097019
137,kailua-kona,19.6406,-155.9956,23.98,60,40,5.14,US,1715097019
138,utrik,11.2278,169.8474,27.92,73,98,8.82,MH,1715097019
139,chortoq,41.0666,71.8553,23.97,30,47,3.62,UZ,1715097019
140,sironj,24.1,77.7,36.6,14,96,2.64,IN,1715097019
141,mazagao,-0.115,-51.2894,27.03,98,100,1.75,BR,1715097019
142,tual,-5.6667,132.75,27.03,79,100,2.14,ID,1715097020
143,nadi,-17.8,177.4167,24.0,88,75,0.0,FJ,1715097020
144,zouerate,22.7187,-12.4521,40.04,6,98,5.58,MR,1715097020
145,enewetak,11.3474,162.3373,27.97,78,88,7.9,MH,1715097020
146,fada,9.5667,8.3,24.64,74,100,1.93,NG,1715097020
147,hawaiian paradise park,19.5933,-154.9731,20.57,97,75,2.06,US,1715097020
148,hadibu,12.65,54.0333,29.93,74,13,1.64,YE,1715097020
149,papao,-17.75,-149.55,24.82,76,34,8.74,PF,1715097020
150,plouzane,48.3833,-4.6167,18.03,67,0,5.66,FR,1715097020
151,dhulikhel,27.6189,85.5529,15.75,82,96,1.95,NP,1715097020
152,kenai,60.5544,-151.2583,3.41,99,0,3.09,US,1715097021
153,longyearbyen,78.2186,15.6401,2.91,70,75,2.06,SJ,1715097021
154,iskateley,67.6803,53.1512,-6.1,83,87,7.6,RU,1715097021
155,tura,25.5198,90.2201,24.03,66,31,1.61,IN,1715097021
156,poronaysk,49.2167,143.1167,-1.8,77,93,4.61,RU,1715097021
157,tazacorte,28.629,-17.9293,23.97,79,20,4.12,ES,1715097021
158,port mathurin,-19.6833,63.4167,25.77,66,93,12.38,MU,1715097021
159,tiquipaya,-17.3382,-66.2189,24.43,24,20,1.79,BO,1715097021
160,magadan,59.5667,150.8,-0.26,99,99,1.85,RU,1715097021
161,fonte boa,-2.4959,-66.2662,31.7,60,100,0.95,BR,1715097021
162,imbituba,-28.24,-48.6703,28.88,51,13,3.31,BR,1715097022
163,codrington,-38.2667,141.9667,8.62,92,0,3.22,AU,1715097022
164,lihue,21.9789,-159.3672,22.77,79,75,6.69,US,1715097022
165,ancud,-41.8697,-73.8203,7.8,76,95,2.19,CL,1715096788
166,saint-pierre,-21.3393,55.4781,24.82,65,0,12.35,RE,1715097022
167,itoman,26.1247,127.6694,23.01,80,75,2.06,JP,1715097022
168,canutama,-6.5339,-64.3831,32.95,55,100,1.38,BR,1715097022
169,thompson,55.7435,-97.8558,7.09,70,40,6.69,CA,1715097022
170,mugia,43.1041,-9.2179,15.51,73,100,8.81,ES,1715097023
171,wailua homesteads,22.0669,-159.378,22.44,83,75,6.69,US,1715097023
172,villa gesell,-37.2639,-56.973,17.25,92,100,9.44,AR,1715096724
173,ketchikan,55.3422,-131.6461,7.41,87,100,3.6,US,1715096899
174,petrozavodsk,61.7849,34.3469,1.93,75,40,3.13,RU,1715096882
175,carnarvon,-24.8667,113.6333,21.93,52,14,6.07,AU,1715097023
176,nizhneudinsk,54.9076,99.0276,5.31,57,0,1.11,RU,1715097023
177,hamilton,39.1834,-84.5333,24.29,84,75,4.63,US,1715096637
178,aitape,-3.1374,142.3475,26.56,89,100,1.85,PG,1715097023
179,shache,38.4167,77.2406,24.16,18,0,2.89,CN,1715097023
180,saint-joseph,-21.3667,55.6167,24.21,75,43,7.39,RE,1715097024
181,badger,64.8,-147.5333,2.82,89,75,2.57,US,1715097024
182,nguigmi,14.2495,13.1092,39.83,9,2,3.02,NE,1715097024
183,sassandra,4.95,-6.0833,30.74,64,96,3.72,CI,1715097024
184,burao,9.5221,45.5336,27.62,55,95,1.55,SO,1715097024
185,palmer,42.1584,-72.3287,24.21,35,20,3.09,US,1715096889
186,onega,63.9061,38.1404,-1.28,62,100,3.5,RU,1715097024
187,angaur state,6.906,134.13,28.14,73,82,3.46,PW,1715097024
188,kapa'a,22.0752,-159.319,23.18,80,75,6.69,US,1715097024
189,dehui,44.5333,125.7,12.47,34,0,2.65,CN,1715097024
190,flying fish cove,-10.4217,105.6791,24.82,94,100,6.69,CX,1715097025
191,bukama,-9.2,25.85,27.18,62,98,0.69,CD,1715097025
192,hotan,37.0997,79.9269,22.88,22,5,1.64,CN,1715097025
193,i-n-salah,27.1935,2.4607,40.2,6,0,7.46,DZ,1715097025
194,champerico,14.3,-91.9167,31.3,67,54,3.09,GT,1715097025
195,afua,-0.1567,-50.3867,24.68,97,100,1.81,BR,1715097025
196,energetik,51.7445,58.7934,12.73,49,0,1.69,RU,1715097025
197,soto la marina,23.7667,-98.2167,34.69,47,100,2.81,MX,1715097025
198,altai,46.3722,96.2583,10.92,52,93,1.47,MN,1715097025
199,enriquillo,17.9,-71.2333,31.82,58,0,4.91,DO,1715097025
200,petropavlovsk-kamchatsky,53.0452,158.6483,0.81,78,75,3.58,RU,1715097025
201,dalhousie,32.5333,75.9833,17.5,42,0,4.4,IN,1715097026
202,aydincik,36.1437,33.3202,20.57,60,0,6.23,TR,1715097026
203,vershino-darasunskiy,52.35,115.5167,15.03,49,91,5.76,RU,1715097026
204,tianchang,37.9981,114.0156,16.74,42,0,0.88,CN,1715097026
205,erenhot,43.6475,111.9767,19.2,18,19,4.23,CN,1715097026
206,marsh harbour,26.5412,-77.0636,24.68,66,0,4.65,BS,1715097026
207,kruisfontein,-34.0033,24.7314,19.38,93,29,2.62,ZA,1715097026
208,lazaro cardenas,17.9583,-102.2,28.09,52,97,3.0,MX,1715097027
209,santa maria,-29.6842,-53.8069,31.61,45,0,9.26,BR,1715096732
210,bejaia,36.7559,5.0843,18.6,82,75,3.09,DZ,1715097027
211,timbiqui,2.7717,-77.6654,27.29,90,83,2.4,CO,1715097027
212,chingirlau,51.095,54.0814,16.0,57,43,4.6,KZ,1715097027
213,mao,39.8885,4.2658,17.31,63,40,5.14,ES,1715097027
214,isfana,39.8386,69.5306,18.31,47,99,1.65,KG,1715097027
215,bel ombre,-4.6167,55.4167,28.91,79,20,2.57,SC,1715097027
216,vilyuchinsk,52.9306,158.4028,1.63,88,89,1.19,RU,1715097027
217,healesville,-37.65,145.5167,11.46,99,7,0.62,AU,1715097027
218,ban su-ngai pa di,6.0724,101.8717,28.77,91,60,0.71,TH,1715097028
219,vila franca do campo,37.7167,-25.4333,18.27,99,71,4.43,PT,1715097028
220,ntchisi,-13.5278,33.9149,15.69,63,2,0.68,MW,1715097028
221,olyokminsk,60.3736,120.4264,3.21,78,100,3.69,RU,1715097028
222,ust-nera,64.5667,143.2,-2.2,92,67,1.95,RU,1715097028
223,port alfred,-33.5906,26.891,18.43,95,8,2.34,ZA,1715097028
224,castellarano,44.5131,10.7329,18.03,87,100,1.07,IT,1715097028
225,howrah,22.5892,88.3103,30.0,74,40,2.06,IN,1715096954
226,sandnessjoen,66.0217,12.6316,13.29,54,20,5.14,NO,1715097028
227,gisborne,-38.6533,178.0042,12.3,68,100,4.41,NZ,1715096857
228,recani,31.2846,-4.2688,33.65,8,75,0.82,MA,1715097029
229,aripuana,-9.1667,-60.6333,34.0,49,24,0.84,BR,1715097029
230,broken hill,-31.95,141.4333,12.46,61,0,4.69,AU,1715096849
231,atafu village,-8.5421,-172.5159,29.49,76,42,5.35,TK,1715097029
232,puerto san jose,13.9256,-90.8244,31.06,62,10,1.56,GT,1715097029
233,san matias,-16.3667,-58.4,35.54,31,44,4.38,BO,1715097029
234,brooks,50.5834,-111.8851,5.99,92,100,13.89,CA,1715097029
235,san andres,12.5847,-81.7006,31.01,74,20,4.63,CO,1715097030
236,sao jose da coroa grande,-8.8978,-35.1478,29.16,69,100,3.84,BR,1715097030
237,arraial do cabo,-22.9661,-42.0278,29.98,48,0,6.17,BR,1715096770
238,bamboo flat,11.7,92.7167,28.05,78,40,1.03,IN,1715097030
239,forest,37.3638,-79.2897,25.55,72,75,3.09,US,1715097030
240,el calafate,-50.3408,-72.2768,-2.06,65,95,1.28,AR,1715097030
241,dongxing,45.3667,130.8,6.11,51,19,1.48,CN,1715097030
242,uyar,55.81,94.3153,8.36,55,6,3.2,RU,1715097030
243,sangkhla buri,15.1555,98.4536,23.99,91,99,0.95,TH,1715097030
244,rikaze,29.25,88.8833,7.34,62,100,1.1,CN,1715097030
245,st. john's,47.5649,-52.7093,8.42,94,100,3.6,CA,1715096970
246,isyangulovo,52.1909,52.1909,15.26,61,1,4.94,RU,1715097031
247,guerrero negro,27.9769,-114.0611,17.75,63,0,5.93,MX,1715096789
248,vernon,50.2581,-119.2691,11.45,53,100,4.02,CA,1715097031
249,bandrele,-12.9067,45.1914,27.86,74,0,4.63,YT,1715097031
250,yaren,-0.5472,166.916,28.68,74,51,3.42,NR,1715096827
251,trujillo,-8.116,-79.03,17.98,94,75,4.63,PE,1715096475
252,fuyang,32.9,115.8167,17.45,59,97,2.93,CN,1715097031
253,hobyo,5.3505,48.5268,29.55,74,100,4.66,SO,1715097031
254,conception bay south,47.4999,-52.9981,8.29,96,100,1.54,CA,1715097031
255,ciudad lazaro cardenas,17.9583,-102.2,28.09,52,97,3.0,MX,1715097027
256,weligama,5.9667,80.4167,27.59,81,100,3.02,LK,1715097031
257,kargil,34.5667,76.1,4.29,50,12,2.72,IN,1715097032
258,taroa,8.7058,171.2275,27.8,82,81,8.8,MH,1715097032
259,gadzhiyevo,69.2551,33.3362,-1.14,69,97,6.05,RU,1715097032
260,aykhal,66.0,111.5,-3.11,95,95,9.29,RU,1715097032
261,wangjing,24.6,94.0333,22.26,64,87,0.91,IN,1715097032
262,namie,37.4833,141.0,16.42,94,100,1.85,JP,1715097032
263,trubchevsk,52.5798,33.7644,3.21,96,100,6.82,RU,1715097032
264,turaif,31.6725,38.6637,22.14,18,20,7.2,SA,1715097032
265,zaghouan,36.4029,10.1429,20.92,34,86,4.97,TN,1715097032
266,barra de santo antonio,-9.4047,-35.5072,24.6,81,100,3.76,BR,1715097033
267,lerwick,60.1545,-1.1494,10.0,67,85,3.79,GB,1715097033
268,kazan,55.7887,49.1221,6.52,97,100,6.92,RU,1715097033
269,ola,59.5833,151.2833,0.08,99,99,2.52,RU,1715097033
270,argo,37.6333,22.7333,20.92,56,99,1.81,GR,1715097033
271,ankang,32.68,109.0172,20.67,68,100,1.54,CN,1715097033
272,shimoda,34.6667,138.95,18.39,92,100,4.34,JP,1715097033
273,lydenburg,-25.0978,30.4597,15.77,37,0,1.02,ZA,1715097033
274,beohari,24.05,81.3833,33.73,20,21,4.13,IN,1715097033
275,reggane,26.7158,0.1714,40.54,5,0,6.07,DZ,1715097033
276,high river,50.5834,-113.8687,4.88,75,100,11.19,CA,1715097034
277,tateyama,34.9833,139.8667,20.61,93,100,6.85,JP,1715097034
278,weyburn,49.6668,-103.8511,10.12,93,100,9.77,CA,1715097034
279,santana,-0.0583,-51.1817,27.1,94,100,2.57,BR,1715097034
280,guarapari,-20.6667,-40.4975,27.78,67,2,4.8,BR,1715097034
281,lodja,-3.4833,23.4333,30.24,48,59,1.48,CD,1715097034
282,midvagur,62.0511,-7.1939,10.46,71,75,5.66,FO,1715097035
283,kurakhovo,47.9852,37.2821,18.82,45,14,5.93,UA,1715097035
284,kiunga,-6.1219,141.2906,23.89,100,100,1.05,PG,1715097035
285,adi keyh,14.8444,39.3772,19.25,63,17,3.4,ER,1715097035
286,klyuchi,52.2667,79.1667,13.0,38,100,3.08,RU,1715097035
287,acajutla,13.5928,-89.8275,30.57,65,78,3.16,SV,1715097035
288,hafar al-batin,28.4328,45.9708,33.32,14,0,3.09,SA,1715097035
289,espumoso,-28.7247,-52.8497,26.64,73,52,5.84,BR,1715097035
290,merizo village,13.2658,144.6691,27.31,89,100,5.53,GU,1715097036
291,olhao,37.0286,-7.8411,25.16,54,0,3.09,PT,1715097036
292,sambava,-14.2667,50.1667,24.93,84,22,6.03,MG,1715097036
293,kenora,49.8167,-94.4337,16.54,41,75,8.75,CA,1715096806
294,klaipeda,55.7172,21.1175,9.03,64,1,9.15,LT,1715097036
295,wurtulla,-26.7568,153.1256,18.5,99,69,1.79,AU,1715097036
296,fortuna,40.5982,-124.1573,11.1,89,20,4.12,US,1715097036
297,sao gabriel da cachoeira,-0.1303,-67.0892,28.89,79,75,1.54,BR,1715097036
298,wuhai,39.6647,106.8122,20.46,14,14,3.27,CN,1715097036
299,bassila,9.0081,1.6654,35.76,36,45,1.49,BJ,1715097036
300,avarua,-21.2078,-159.775,27.03,94,75,4.12,CK,1715097036
301,kapuskasing,49.4169,-82.4331,15.0,47,20,3.6,CA,1715097037
302,lypova dolyna,50.5643,33.7979,14.01,74,15,6.52,UA,1715097037
303,patong,7.8961,98.2966,30.01,75,100,3.4,TH,1715097037
304,slavyanka,42.8633,131.3847,5.54,81,1,1.28,RU,1715097037
305,taulaga,-11.0553,-171.0883,29.46,78,92,4.23,AS,1715097037
306,sanya,18.2431,109.505,28.09,83,0,1.0,CN,1715097037
307,beira,-19.8436,34.8389,26.05,78,0,3.6,MZ,1715097037
308,molchanovo,57.5817,83.7692,9.03,57,100,3.1,RU,1715097037
309,el oued,33.3561,6.8632,34.83,15,40,6.69,DZ,1715097038
310,rawah,34.4816,41.9093,24.07,22,42,4.22,IQ,1715097038
311,touros,-5.1989,-35.4608,30.6,59,78,6.14,BR,1715097038
312,vondrozo,-22.8167,47.2833,17.9,98,61,1.08,MG,1715097038
313,brookings,44.3114,-96.7984,14.65,67,100,9.26,US,1715096894
314,prince rupert,54.3161,-130.3201,6.83,85,75,7.72,CA,1715097038
315,dauphin,51.1494,-100.0502,13.08,71,100,6.69,CA,1715096759
316,dondo,-19.6094,34.7431,25.73,80,0,2.82,MZ,1715097038
317,maloye ganyushkino,46.6,49.2667,17.47,26,100,2.42,KZ,1715097038
318,bereznik,62.8551,42.7072,1.31,43,70,1.59,RU,1715097039
319,zaoyang,32.1272,112.7542,20.99,62,39,3.44,CN,1715097039
320,les cayes,18.2,-73.75,29.88,65,1,4.76,HT,1715097039
321,labasa,-16.4167,179.3833,24.52,94,53,2.16,FJ,1715097039
322,vila velha,-20.3297,-40.2925,29.98,99,75,1.54,BR,1715096933
323,greymouth,-42.4667,171.2,4.28,78,0,2.8,NZ,1715096860
324,luena,-11.7833,19.9167,27.1,50,43,4.63,AO,1715097039
325,acapulco de juarez,16.8634,-99.8901,27.9,74,0,1.54,MX,1715096782
326,muisne,0.6,-80.0333,27.42,81,96,6.07,EC,1715097039
327,kerikeri,-35.2268,173.9474,11.06,92,26,2.68,NZ,1715097039
328,nemuro,43.3236,145.575,3.29,93,100,5.78,JP,1715097039
329,nuku'alofa,-21.1333,-175.2,24.19,94,20,0.0,TO,1715097040
330,tommot,58.9564,126.2925,1.61,99,100,0.87,RU,1715097040
331,chertkovo,49.3847,40.1547,19.38,47,1,6.7,RU,1715097040
332,howard springs,-12.497,131.047,26.95,95,4,2.04,AU,1715097040
333,tralee,52.2704,-9.7026,16.14,67,75,3.6,IE,1715097040
334,new plymouth,-39.0667,174.0833,6.0,57,0,3.7,NZ,1715097040
335,mil'kovo,55.6078,37.7956,3.0,98,100,6.15,RU,1715097040
336,egilsstadir,65.2653,-14.3948,10.95,46,40,8.23,IS,1715097040
337,qamdo,31.1667,97.2333,5.73,65,98,2.86,CN,1715097040
338,bagudo,11.4033,4.2296,36.23,33,87,3.7,NG,1715097040
339,la'ie,21.6477,-157.9253,22.98,81,37,2.24,US,1715097041
340,port saint john's,-31.6229,29.5448,25.28,58,0,4.0,ZA,1715097041
341,sunam,30.1333,75.8,34.33,12,0,2.11,IN,1715097041
342,mweka,-4.85,21.5667,29.36,47,91,0.99,CD,1715097041
343,homa bay,-0.5273,34.4571,22.13,86,100,2.83,KE,1715097041
344,matthew town,20.95,-73.6667,27.03,79,4,5.96,BS,1715097041
345,sarangani,5.4033,125.4636,28.74,77,17,6.09,PH,1715097041
346,usogorsk,63.4106,48.6872,-1.3,58,58,2.27,RU,1715097041
347,jining,35.405,116.5814,14.84,49,1,2.98,CN,1715097041
348,gizo,-8.103,156.8419,27.62,83,99,3.41,SB,1715097042
349,karratha,-20.7377,116.8463,25.77,70,0,2.64,AU,1715097042
350,essaouira,31.5125,-9.77,20.42,68,67,13.63,MA,1715097042
351,bridgewater,44.3835,-64.5155,18.39,58,13,5.66,CA,1715097042
352,mesyagutovo,55.5303,58.2528,6.93,70,98,2.6,RU,1715097042
353,kill devil hills,36.0307,-75.676,26.0,73,75,4.12,US,1715096893
354,buka,40.8108,69.1986,22.54,54,48,3.6,UZ,1715097042
355,montehermoso,40.0437,-6.3389,26.03,30,93,0.56,ES,1715097042
356,lautoka,-17.6167,177.4667,23.92,88,75,0.0,FJ,1715097042
357,maumere,-8.6199,122.2111,26.27,86,71,3.63,ID,1715097043
358,nogliki,51.8333,143.1667,-2.03,95,96,2.68,RU,1715097043
359,magadi,12.9667,77.2333,31.09,70,94,6.55,IN,1715097043
360,la sarre,48.8002,-79.1996,13.29,53,19,2.73,CA,1715097043
361,shihezi,44.3,86.0333,22.56,43,100,1.33,CN,1715097043
362,nar'yan-mar,67.6713,53.087,-6.05,83,88,7.6,RU,1715097043
363,inirida,3.8653,-67.9239,31.52,62,94,1.51,CO,1715097043
364,arcos de la frontera,36.7508,-5.8106,28.51,38,100,1.34,ES,1715097043
365,sinop,41.7711,34.8709,12.24,83,2,1.36,TR,1715097043
366,esmeraldas,-19.7625,-44.3139,27.63,36,0,3.89,BR,1715097044
367,susuman,62.7833,148.1667,0.55,75,100,2.24,RU,1715097044
368,malango,-2.9627,119.9001,19.79,99,100,0.75,ID,1715097044
369,balqash,46.8481,74.995,18.66,43,16,2.97,KZ,1715097044
370,sitka,57.0531,-135.33,6.94,76,75,4.63,US,1715097044
371,princeville,45.7668,-61.2985,16.48,63,0,5.14,CA,1715097044
372,craig,40.5153,-107.5464,2.97,70,100,9.77,US,1715097044
373,vieste,41.8825,16.175,22.01,58,99,4.47,IT,1715097045
374,new norfolk,-42.7826,147.0587,12.06,91,100,0.45,AU,1715097045
375,alofi,-19.0595,-169.9187,25.94,100,20,3.6,NU,1715097045
376,djibo,14.1022,-1.6306,37.21,25,100,3.19,BF,1715097045
377,cidreira,-30.1811,-50.2056,27.75,59,45,1.31,BR,1715097045
378,mar del plata,-38.0023,-57.5575,17.19,85,75,6.69,AR,1715096463
379,kayangel,8.0823,134.7173,28.13,74,76,2.96,PW,1715097045
380,yaroslavl,57.6299,39.8737,6.89,45,0,4.47,RU,1715097045
381,raahe,64.6833,24.4833,3.05,65,24,5.86,FI,1715097045
382,rapla,59.0072,24.7928,7.72,43,43,4.34,EE,1715097045
383,praia da vitoria,38.7333,-27.0667,21.14,78,40,8.42,PT,1715097046
384,novodvinsk,64.4165,40.8122,0.99,34,97,2.79,RU,1715097046
385,bueng kan,18.363,103.6519,25.95,82,100,2.39,TH,1715097046
386,winnipeg,49.8844,-97.147,18.95,48,100,7.72,CA,1715096474
387,nuuk,64.1835,-51.7216,0.34,69,0,4.12,GL,1715097031
388,aasiaat,68.7098,-52.8699,-5.55,68,100,1.0,GL,1715097046
389,kulhudhuffushi,6.6221,73.07,29.7,74,100,4.64,MV,1715097046
390,vadso,70.0744,29.7487,1.49,80,40,4.63,NO,1715097046
391,sur,22.5667,59.5289,34.52,45,63,3.01,OM,1715097046
392,saldanha,-33.0117,17.9442,18.03,89,66,3.76,ZA,1715097046
393,plettenberg bay,-34.0527,23.3716,16.78,85,4,1.87,ZA,1715097047
394,beatrice,40.2681,-96.747,19.05,42,0,8.23,US,1715096971
395,quesnel,52.9999,-122.5029,4.28,87,20,0.0,CA,1715096941
396,tshabong,-26.05,22.45,25.71,16,0,2.63,BW,1715097047
397,murashi,59.3999,48.9615,3.22,59,100,3.29,RU,1715097047
398,krasnyy kholm,58.0607,37.1203,4.15,53,100,4.98,RU,1715097047
399,namibe,-15.1961,12.1522,24.06,67,38,7.73,AO,1715097048
400,chibougamau,49.9168,-74.3659,3.79,81,100,4.63,CA,1715096838
401,veraval,20.9,70.3667,28.43,81,0,6.33,IN,1715097048
402,mount gambier,-37.8333,140.7667,8.82,97,12,2.11,AU,1715097048
403,santa luzia,-19.7697,-43.8514,27.65,45,20,4.63,BR,1715097048
404,kijang,35.2442,129.2139,11.85,87,100,7.85,KR,1715097048
405,riyadh,24.6877,46.7219,35.08,11,0,3.21,SA,1715096802
406,walvis bay,-22.9575,14.5053,17.83,74,6,10.12,NA,1715097048
407,ferkessedougou,9.6,-5.2,36.09,34,96,4.4,CI,1715097048
408,san,13.3034,-4.8956,40.3,19,93,7.24,ML,1715096790
409,crane,31.3974,-102.3501,25.36,14,67,3.33,US,1715097049
410,khamis mushait,18.3064,42.7292,25.34,31,0,4.12,SA,1715097049
411,soe,-9.8607,124.284,17.9,96,29,1.78,ID,1715097049
412,rongelap,11.1635,166.8941,28.0,74,99,7.7,MH,1715097049
413,cartagena,10.3997,-75.5144,32.79,75,20,2.06,CO,1715096619
414,quellon,-43.1167,-73.6167,7.04,77,98,3.08,CL,1715097049
415,plastun,44.7561,136.2939,1.09,90,94,0.21,RU,1715097049
416,balkanabat,39.5108,54.3671,20.08,64,75,5.28,TM,1715097049
417,coracao de jesus,-16.6853,-44.365,28.76,37,0,5.05,BR,1715096996
418,saipan,15.1355,145.701,27.39,74,20,3.6,MP,1715097050
419,mejit,10.2753,170.8646,27.65,78,98,9.19,MH,1715097050
420,frutal,-20.0247,-48.9406,31.37,40,0,4.26,BR,1715096826
421,lensk,60.7253,114.9278,2.44,83,93,4.94,RU,1715097050
422,musaffah,24.3458,54.5024,35.05,66,0,5.14,AE,1715097050
423,mukalla,14.5425,49.1242,29.48,72,24,2.25,YE,1715097050
424,campbellton,48.0075,-66.6727,12.25,59,100,4.81,CA,1715097051
425,tabou,4.423,-7.3528,30.1,68,49,3.01,CI,1715097051
426,caraballeda,10.6112,-66.8522,31.59,78,40,2.06,VE,1715097052
427,alice springs,-23.7,133.8833,12.75,71,100,0.0,AU,1715097052
428,abashiri,44.0213,144.2697,1.39,98,100,6.25,JP,1715097052
429,kingston,17.997,-76.7936,32.31,66,20,2.57,JM,1715097008
430,labrador city,52.9463,-66.9114,4.54,66,75,5.36,CA,1715097052
431,geraldton,-28.7667,114.6,13.23,76,1,2.06,AU,1715097052
432,novopokrovskaya,45.9514,40.7006,17.08,58,20,1.53,RU,1715097052
433,xique xique,-10.8217,-42.7311,32.17,44,100,3.55,BR,1715097052
434,kargasok,59.0556,80.8572,8.27,67,100,5.02,RU,1715097053
435,daru,-9.0763,143.2092,26.56,87,100,6.98,PG,1715097053
436,port moresby,-9.4431,147.1797,25.68,89,75,5.14,PG,1715096703
437,skeldon,5.8833,-57.1333,28.86,74,97,3.38,GY,1715097053
438,yokadouma,3.5167,15.05,31.57,44,100,1.09,CM,1715097053
439,prado,-17.3411,-39.2208,28.43,69,3,3.77,BR,1715097053
440,entebbe,0.0644,32.4469,26.18,65,20,4.63,UG,1715097053
441,paramonga,-10.6667,-77.8333,21.1,82,91,4.81,PE,1715097053
442,marathon,44.9,-89.7668,11.86,91,100,5.14,US,1715097053
443,eydhafushi,5.1033,73.0708,29.27,79,85,4.37,MV,1715097053
444,abepura,-2.6333,140.5833,25.45,100,40,0.51,ID,1715097053
445,georgetown,5.4112,100.3354,30.97,74,40,2.06,MY,1715096916
446,la gi,10.6667,107.7833,29.5,75,66,6.98,VN,1715097054
447,ruangwa,-10.0667,38.9333,21.64,93,14,2.1,TZ,1715097054
448,amga,60.8953,131.9608,6.84,82,100,4.02,RU,1715097054
449,tidjikja,18.5564,-11.4271,40.9,5,66,3.07,MR,1715097054
450,xinglongshan,43.9561,125.4661,8.86,43,0,2.0,CN,1715097054
451,ghat,24.9647,10.1728,39.1,9,56,10.45,LY,1715097054
452,caxias,38.7031,-9.2767,25.9,50,0,4.63,PT,1715097054
453,fort scott,37.8398,-94.7083,22.99,58,2,3.69,US,1715096813
454,remire-montjoly,4.9167,-52.2667,27.02,94,75,2.06,GF,1715097054
455,shalqar,47.8333,59.6,19.29,30,100,5.8,KZ,1715097055
456,chui,-33.6971,-53.4616,20.33,98,100,4.02,UY,1715097055
457,olinda,-8.0089,-34.8553,27.85,83,75,5.66,BR,1715097055
458,tukrah,32.5341,20.5791,21.54,45,90,5.96,LY,1715097055
459,qarqaraly,49.4058,75.4742,9.65,94,94,2.13,KZ,1715097055
460,ntungamo,-0.8833,29.65,22.67,78,67,1.09,UG,1715097055
461,muana,-1.5283,-49.2167,30.97,61,90,1.23,BR,1715097055
462,hirara,24.8,125.2833,24.92,78,75,4.12,JP,1715097055
463,oranjemund,-28.55,16.4333,17.47,83,3,2.61,NA,1715097055
464,sainte-marie,-20.8968,55.5496,25.09,76,0,6.69,RE,1715097056
465,mount isa,-20.7333,139.5,21.87,43,80,4.63,AU,1715097056
466,creston,41.0586,-94.3614,17.98,77,0,5.66,US,1715097056
467,la passe,45.5549,-0.8967,19.13,81,29,5.91,FR,1715097056
468,hithadhoo,-0.6,73.0833,29.47,77,70,4.34,MV,1715097056
469,amurzet,47.6967,131.0981,8.49,43,12,2.7,RU,1715097056
470,ouadda,8.0777,22.4007,37.94,15,84,3.17,CF,1715097056
471,leava,-14.3,-178.1667,28.93,80,100,4.24,WF,1715097056
472,lone grove,34.1754,-97.2628,25.73,38,0,4.12,US,1715096945
473,kone,-21.0595,164.8658,17.68,89,0,1.22,NC,1715097057
474,l'aquila,42.365,13.3935,16.85,66,97,2.92,IT,1715097057
475,kaliua,-5.0606,31.7936,22.76,77,82,1.89,TZ,1715097057
476,carloforte,39.145,8.3058,16.12,76,2,10.49,IT,1715097057
477,ternate,0.8,127.4,27.36,82,87,2.3,ID,1715097057
478,marsa alam,25.0757,34.8918,24.67,47,0,4.94,EG,1715097057
479,cruzeiro do sul,-29.5128,-51.9853,32.49,56,35,3.71,BR,1715097057
480,kertih,4.5141,103.4483,26.01,94,51,0.0,MY,1715097057
481,aioun,16.6614,-9.6149,43.29,4,0,5.93,MR,1715097057
482,mezzouna,34.5776,9.8419,27.34,33,92,9.18,TN,1715097058
483,magburaka,8.7167,-11.95,35.27,43,90,1.41,SL,1715097058
484,juhaynah,26.6732,31.4976,28.32,10,0,6.18,EG,1715097058
485,magistral'nyy,56.1725,107.4458,4.82,53,41,2.32,RU,1715097058
486,revda,56.801,59.9303,2.74,93,100,1.67,RU,1715097058
487,nadym,65.5333,72.5167,-2.24,83,98,6.98,RU,1715097058
488,pimentel,-6.8367,-79.9342,20.16,83,20,8.23,PE,1715097058
489,naha,26.2125,127.6811,22.95,80,75,2.06,JP,1715097058
490,pariaman,-0.619,100.12,26.03,88,99,1.94,ID,1715097058
491,usinsk,65.9939,57.5281,-1.07,78,100,9.83,RU,1715097059
492,trenton,40.217,-74.7429,26.22,45,29,0.89,US,1715096856
493,al kharijah,25.4514,30.5464,28.69,14,0,5.35,EG,1715097059
494,ploneour-lanvern,47.9,-4.2833,19.18,55,40,5.14,FR,1715097059
495,robore,-18.3333,-59.75,32.05,62,20,9.26,BO,1715097059
496,ataq,14.5377,46.8319,27.26,57,10,8.03,YE,1715097059
497,'ali sabieh,11.1558,42.7125,29.81,57,100,6.61,DJ,1715097059
498,pirenopolis,-15.8525,-48.9592,28.27,41,0,2.94,BR,1715097059
499,brisas de zicatela,15.8369,-97.0419,29.98,58,10,5.36,MX,1715097059
500,wucheng,29.6008,118.175,18.53,92,99,0.96,CN,1715097059
501,fort mcmurray,56.7268,-111.381,9.77,93,100,5.66,CA,1715096973
502,savinesti,46.85,26.4667,20.49,66,100,3.84,RO,1715097060
503,al khafji,28.4391,48.4913,27.14,60,0,4.23,SA,1715097060
504,khandyga,62.6667,135.6,6.34,87,100,5.66,RU,1715097060
505,berrahal,36.8353,7.4533,18.85,67,67,6.35,DZ,1715097060
506,sao raimundo nonato,-9.0153,-42.6994,35.01,33,100,5.13,BR,1715097060
507,nishinoomote,30.7333,131.0,19.65,70,100,8.63,JP,1715097060
508,basoko,1.2391,23.616,31.75,53,89,0.76,CD,1715097060
509,gorno-altaysk,51.9561,85.955,12.51,73,100,1.34,RU,1715097060
510,newman,37.3138,-121.0208,14.57,80,49,3.58,US,1715097051
511,alpena,45.0617,-83.4327,17.14,54,0,5.14,US,1715097061
512,vyerkhnyadzvinsk,55.7815,27.9443,8.33,47,37,4.4,BY,1715097061
513,hilo,19.7297,-155.09,20.69,96,75,2.06,US,1715097061
514,miramar beach,30.3744,-86.3586,29.35,83,100,3.6,US,1715097049
515,ladario,-19.0047,-57.6017,34.05,49,20,5.66,BR,1715097061
516,rabo de peixe,37.8,-25.5833,17.77,99,75,4.63,PT,1715097061
517,gebeit,21.0667,36.3167,25.04,43,0,7.91,SD,1715097061
518,isangel,-19.55,169.2667,22.73,81,19,5.16,VU,1715097061
519,tres lagoas,-20.7511,-51.6783,34.58,28,2,5.19,BR,1715097061
520,otjimbingwe,-22.35,16.1333,27.26,25,11,7.04,NA,1715097062
521,treasure island,27.7692,-82.769,31.27,67,0,3.6,US,1715097062
522,bogale,16.2833,95.4,30.2,58,63,3.77,MM,1715097062
523,moyale,3.5167,39.0584,20.87,86,62,1.61,KE,1715097062
524,salinopolis,-0.6136,-47.3561,28.74,78,92,4.17,BR,1715097062
525,arua,3.0201,30.9111,24.09,63,28,2.17,UG,1715097042
526,klaksvik,62.2266,-6.589,10.51,71,69,7.55,FO,1715097062
527,pacocha,-17.5833,-71.3333,22.08,64,100,5.14,PE,1715097062
528,maragogi,-9.0122,-35.2225,28.84,71,100,3.88,BR,1715097062
529,shush,32.1942,48.2436,28.25,28,1,3.24,IR,1715097062
530,darwin,-12.4611,130.8418,26.99,73,9,1.54,AU,1715096829
531,zunyi,27.6867,106.9072,17.75,73,100,0.95,CN,1715097063
532,middelburg,-25.7751,29.4648,19.22,18,0,3.06,ZA,1715097063
533,campo alegre,-9.7819,-36.3508,23.92,96,100,1.33,BR,1715097063
534,tongren,27.7172,109.1853,18.79,84,100,0.84,CN,1715097063
535,bulawayo,-20.15,28.5833,23.07,29,0,5.0,ZW,1715097063
536,strzelce krajenskie,52.8773,15.5298,17.98,45,76,4.31,PL,1715097063
537,dampit,-8.2116,112.7493,21.34,99,35,1.4,ID,1715097063
538,batumi,41.6416,41.6359,14.99,72,75,2.57,GE,1715097064
539,vuktyl,63.8567,57.3094,-1.05,92,91,4.47,RU,1715097064
540,grajau,-5.8194,-46.1386,31.26,50,68,3.64,BR,1715097064
541,janeng,-25.4167,25.55,25.8,23,0,3.56,BW,1715097065
542,karukh,34.4811,62.5863,24.58,34,45,0.12,AF,1715097065
543,ban sam chuk,14.7333,100.1,27.7,71,100,2.87,TH,1715097065
544,cabo san lucas,22.8909,-109.9124,25.84,61,100,0.89,MX,1715096832
545,shumerlya,55.5005,46.4129,5.95,99,100,3.93,RU,1715097065
546,pombas,17.1503,-25.0201,24.88,72,76,4.35,CV,1715097065
547,island harbour,50.724,-1.2758,20.73,60,81,1.79,GB,1715097065
548,mora,11.0461,14.1401,42.0,7,98,3.28,CM,1715097066
549,vieux fort,13.7167,-60.95,30.64,69,20,8.75,LC,1715097066
550,kroya,-7.6331,109.2461,25.56,88,25,2.51,ID,1715097066
551,bodo,67.28,14.405,9.02,47,0,10.29,NO,1715097066
552,ptolemaida,40.5147,21.6786,23.05,59,100,1.81,GR,1715097066
553,trincomalee,8.5711,81.2335,30.31,72,12,1.03,LK,1715097066
554,ende,-8.8432,121.6623,23.98,93,67,2.88,ID,1715097066
555,dapa,9.7594,126.0531,27.33,77,100,2.21,PH,1715097066
556,egersund,58.4513,5.9997,14.65,77,78,2.45,NO,1715097066
557,mount pearl,47.5166,-52.7813,7.96,95,100,3.6,CA,1715097066
558,talcahuano,-36.7167,-73.1167,10.82,71,75,3.09,CL,1715097016
559,mongu,-15.2484,23.1274,27.11,41,79,1.92,ZM,1715097067
560,tsiombe,-25.3,45.4833,22.64,81,0,5.39,MG,1715097067
561,turtas,58.9417,69.1325,7.06,77,22,3.63,RU,1715097067
562,madimba,-10.4,40.3333,25.2,87,90,3.73,TZ,1715097067
563,el bauga,18.262,33.9081,33.69,6,0,6.34,SD,1715097067
564,dej,47.15,23.8667,20.51,94,100,1.92,RO,1715097067
565,kegen,43.0197,79.2203,9.54,80,61,1.69,KZ,1715097067
566,hovd,48.0056,91.6419,13.78,44,90,1.39,MN,1715097067
